[
  {
    "model": "respondents.Branch",
    "fields": {
      "year": "2013",
      "institution": "91000000001",
      "name": "Dev Test Branch 1",
      "street": "123 Test Street",
      "city": "Herndon",
      "state": "VA",
      "zipcode": "20171",
      "lat": "0.5",
      "lon": "0.5"
    }
  },
  {
    "model": "respondents.Branch",
    "fields": {
      "year": "2013",
      "institution": "91000000001",
      "name": "Dev Test Branch 2",
      "street": "1234 Test Street",
      "city": "Herndon",
      "state": "VA",
      "zipcode": "20171",
      "lat": "0.2",
      "lon": "0.3"
    }
  },
  {
    "model": "respondents.Branch",
    "fields": {
      "year": "2013",
      "institution": "91000000001",
      "name": "Dev Test Branch 3",
      "street": "12345 Test Street",
      "city": "Reston",
      "state": "VA",
      "zipcode": "20190",
      "lat": "1.5",
      "lon": "1.5"
    }
  },
  {
    "model": "respondents.Branch",
    "fields": {
      "year": "2013",
      "institution": "91000000002",
      "name": "Dev Test Branch 4",
      "street": "12345 Test Street",
      "city": "Reston",
      "state": "VA",
      "zipcode": "20190",
      "lat": "0.5",
      "lon": "0.5"
    }
  }
]